site,latitude,longitude,temp,prec,aridity,prec_90m
station_creek,-16.611817,145.240833,23.2,1728,7.628,1129
mtlewis_sclerophyll,-16.5829,145.26145,20.5,1520,8.153,2189
mtlewis_rainforest,-16.593233,145.27495,20.7,1527,9.287,2630
pennyweight,-16.574017,144.9152,24.2,1448,4.135,812
daintree,-16.10158,145.44453,23.6,1980,20.323,4458
